{
  "description": "African countries with approximate centroid coordinates for mapping. ISO 3166-1 alpha-2.",
  "countries": [
    {"name": "Algeria", "code": "DZ", "lat": 28.03, "lon": 1.65},
    {"name": "Angola", "code": "AO", "lat": -11.20, "lon": 17.87},
    {"name": "Benin", "code": "BJ", "lat": 9.31, "lon": 2.32},
    {"name": "Botswana", "code": "BW", "lat": -22.33, "lon": 24.69},
    {"name": "Burkina Faso", "code": "BF", "lat": 12.24, "lon": -1.56},
    {"name": "Burundi", "code": "BI", "lat": -3.37, "lon": 29.92},
    {"name": "Cameroon", "code": "CM", "lat": 6.69, "lon": 12.35},
    {"name": "Cape Verde", "code": "CV", "lat": 15.12, "lon": -23.61},
    {"name": "Central African Republic", "code": "CF", "lat": 6.61, "lon": 20.94},
    {"name": "Chad", "code": "TD", "lat": 15.45, "lon": 18.73},
    {"name": "Comoros", "code": "KM", "lat": -11.65, "lon": 43.33},
    {"name": "Congo", "code": "CG", "lat": -0.23, "lon": 15.83},
    {"name": "Democratic Republic of the Congo", "code": "CD", "lat": -4.04, "lon": 21.76},
    {"name": "Djibouti", "code": "DJ", "lat": 11.83, "lon": 42.59},
    {"name": "Egypt", "code": "EG", "lat": 26.82, "lon": 30.80},
    {"name": "Equatorial Guinea", "code": "GQ", "lat": 1.65, "lon": 10.27},
    {"name": "Eritrea", "code": "ER", "lat": 15.18, "lon": 39.78},
    {"name": "Eswatini", "code": "SZ", "lat": -26.52, "lon": 31.47},
    {"name": "Ethiopia", "code": "ET", "lat": 9.15, "lon": 40.49},
    {"name": "Gabon", "code": "GA", "lat": -0.80, "lon": 11.61},
    {"name": "Gambia", "code": "GM", "lat": 13.44, "lon": -15.31},
    {"name": "Ghana", "code": "GH", "lat": 7.95, "lon": -1.02},
    {"name": "Guinea", "code": "GN", "lat": 9.95, "lon": -9.70},
    {"name": "Guinea-Bissau", "code": "GW", "lat": 11.80, "lon": -15.18},
    {"name": "Ivory Coast", "code": "CI", "lat": 7.54, "lon": -5.55},
    {"name": "Kenya", "code": "KE", "lat": -0.02, "lon": 37.91},
    {"name": "Lesotho", "code": "LS", "lat": -29.61, "lon": 28.23},
    {"name": "Liberia", "code": "LR", "lat": 6.43, "lon": -9.43},
    {"name": "Libya", "code": "LY", "lat": 26.34, "lon": 17.23},
    {"name": "Madagascar", "code": "MG", "lat": -18.77, "lon": 46.87},
    {"name": "Malawi", "code": "MW", "lat": -13.25, "lon": 34.30},
    {"name": "Mali", "code": "ML", "lat": 17.57, "lon": -3.99},
    {"name": "Mauritania", "code": "MR", "lat": 21.01, "lon": -10.94},
    {"name": "Mauritius", "code": "MU", "lat": -20.35, "lon": 57.55},
    {"name": "Morocco", "code": "MA", "lat": 31.79, "lon": -7.09},
    {"name": "Mozambique", "code": "MZ", "lat": -18.67, "lon": 35.53},
    {"name": "Namibia", "code": "NA", "lat": -22.96, "lon": 18.49},
    {"name": "Niger", "code": "NE", "lat": 17.61, "lon": 8.08},
    {"name": "Nigeria", "code": "NG", "lat": 9.08, "lon": 8.67},
    {"name": "Rwanda", "code": "RW", "lat": -1.94, "lon": 29.87},
    {"name": "São Tomé and Príncipe", "code": "ST", "lat": 0.34, "lon": 6.61},
    {"name": "Senegal", "code": "SN", "lat": 14.50, "lon": -14.45},
    {"name": "Seychelles", "code": "SC", "lat": -4.68, "lon": 55.49},
    {"name": "Sierra Leone", "code": "SL", "lat": 8.46, "lon": -11.78},
    {"name": "Somalia", "code": "SO", "lat": 5.15, "lon": 46.20},
    {"name": "South Africa", "code": "ZA", "lat": -30.56, "lon": 22.94},
    {"name": "South Sudan", "code": "SS", "lat": 6.88, "lon": 31.31},
    {"name": "Sudan", "code": "SD", "lat": 12.86, "lon": 30.22},
    {"name": "Tanzania", "code": "TZ", "lat": -6.37, "lon": 34.89},
    {"name": "Togo", "code": "TG", "lat": 8.62, "lon": 0.82},
    {"name": "Tunisia", "code": "TN", "lat": 33.89, "lon": 9.54},
    {"name": "Uganda", "code": "UG", "lat": 1.37, "lon": 32.29},
    {"name": "Zambia", "code": "ZM", "lat": -13.13, "lon": 27.85},
    {"name": "Zimbabwe", "code": "ZW", "lat": -19.02, "lon": 29.15}
  ]
}
